{"records":{"schema":[{"name":"Name","type":"string"},{"name":"First Name","type":"string"},{"name":"Last Name","type":"string"},{"name":"Institution","type":"string"},{"name":"Thrust","type":"string"},{"name":"Latitude","type":"string"},{"name":"Longitude","type":"string"},{"name":"County","type":"string"},{"name":"City","type":"string"},{"name":"State","type":"string"},{"name":"Country","type":"string"}],"data":[{"State":"FL","First Name":"Shekhar","Country":"United States","Latitude":[25.76104],"Institution":"Florida International University","City":"Miami","Last Name":"Bhansali","Longitude":[-80.37642],"County":"Miami-Dade Co.","Thrust":"Wearable Nanosensors","Name":"Shekhar Bhansali"},{"State":"FL","First Name":"Andres","Country":"United States","Latitude":[25.76104],"Institution":"Florida International University","City":"Miami","Last Name":"Diaz Cruz","Longitude":[-80.37642],"County":"Miami-Dade Co.","Thrust":"Integrated Sensor Node","Name":"Andres Felipe Diaz Cruz"},{"State":"FL","First Name":"Bilal","Country":"United States","Latitude":[25.76104],"Institution":"Florida International University","City":"Miami","Last Name":"El-Zahab","Longitude":[-80.37642],"County":"Miami-Dade Co.","Thrust":"Energy Harvesting and Storage","Name":"El-zahab, Bilal"},{"State":"FL","First Name":"Ajeet","Country":"United States","Latitude":[25.76104],"Institution":"Florida International University","City":"Miami","Last Name":"Kaushik","Longitude":[-80.37642],"County":"Miami-Dade Co.","Thrust":"Wearable Nanosensors","Name":"Ajeet Kaushik"},{"State":"FL","First Name":"Pandiaraj","Country":"United States","Latitude":[25.76104],"Institution":"Florida International University","City":"Miami","Last Name":"Manickam","Longitude":[-80.37642],"County":"Miami-Dade Co.","Thrust":"Wearable Nanosensors","Name":"Manickam, Pandiaraj"},{"State":"FL","First Name":"Nicolas","Country":"United States","Latitude":[25.76104],"Institution":"Florida International University","City":"Miami","Last Name":"Norena","Longitude":[-80.37642],"County":"Miami-Dade Co.","Thrust":"Integrated Sensor Node","Name":"Nicolas Norena"},{"State":"FL","First Name":"Syed","Country":"United States","Latitude":[25.76104],"Institution":"Florida International University","City":"Miami","Last Name":"Pasha","Longitude":[-80.37642],"County":"Miami-Dade Co.","Thrust":"Wearable Nanosensors","Name":"Syed Khalid Pasha"},{"State":"FL","First Name":"Aparajita","Country":"United States","Latitude":[25.76104],"Institution":"Florida International University","City":"Miami","Last Name":"Singh","Longitude":[-80.37642],"County":"Miami-Dade Co.","Thrust":"Wearable Nanosensors","Name":"Singh, Aparajita"},{"State":"FL","First Name":"Abhay","Country":"United States","Latitude":[25.76104],"Institution":"Florida International Univesity","City":"Miami","Last Name":"Vasudev","Longitude":[-80.37642],"County":"Miami-Dade Co.","Thrust":"Low-Power Nanoelectronics","Name":"Abhay Vasudev"},{"State":"NC","First Name":"Brinnae","Country":"United States","Latitude":[35.78677],"Institution":"North Carolina State University","City":"Raleigh","Last Name":"Bent","Longitude":[-78.66439],"County":"Wake Co.","Thrust":"HET/SAP Testbeds","Name":"B. Bent"},{"State":"NC","First Name":"Eric","Country":"United States","Latitude":[35.78677],"Institution":"North Carolina State University","City":"Raleigh","Last Name":"Beppler","Longitude":[-78.66439],"County":"Wake Co.","Thrust":"HET/SAP Testbeds","Name":"E. Beppler"},{"State":"NC","First Name":"Alper","Country":"United States","Latitude":[35.78677],"Institution":"North Carolina State University","City":"Raleigh","Last Name":"Bozkurt","Longitude":[-78.66439],"County":"Wake Co.","Thrust":"Wearable Nanosensors/HET/SAP Testbeds","Name":"A. Bozkurt"},{"State":"NC","First Name":"Benton","Country":"United States","Latitude":[35.78677],"Institution":"North Carolina State University","City":"Raleigh","Last Name":"Calhoun","Longitude":[-78.66439],"County":"Wake Co.","Thrust":"Integrated Sensor Nod Design/HET/SAP Testbeds","Name":"B. H. Calhoun"},{"State":"NC","First Name":"Zheng","Country":"United States","Latitude":[35.78677],"Institution":"North Carolina State University","City":"Raleigh","Last Name":"Cui","Longitude":[-78.66439],"County":"Wake Co.","Thrust":"Wearable Nanosensors","Name":"Zheng Cui"},{"State":"NC","First Name":"James","Country":"United States","Latitude":[35.78677],"Institution":"North Carolina State University","City":"Raleigh","Last Name":"Dieffenderfer","Longitude":[-78.66439],"County":"Wake Co.","Thrust":"Wearable Nanosensors","Name":"J. P. Dieffenderfer"},{"State":"NC","First Name":"Henry","Country":"United States","Latitude":[35.78677],"Institution":"North Carolina State University","City":"Raleigh","Last Name":"Goodell","Longitude":[-78.66439],"County":"Wake Co.","Thrust":"HET/SAP Testbeds","Name":"H. Goodell"},{"State":"NC","First Name":"Zhen","Country":"United States","Latitude":[35.78677],"Institution":"North Carolina State University","City":"Raleigh","Last Name":"Gu","Longitude":[-78.66439],"County":"Wake Co.","Thrust":"Wearable Nanosensors","Name":"Zhen Gu"},{"State":"NC","First Name":"Jesse","Country":"United States","Latitude":[35.78677],"Institution":"North Carolina State University","City":"Raleigh","Last Name":"Jur","Longitude":[-78.66439],"County":"Wake Co.","Thrust":"System Testbeds","Name":"J. S. Jur"},{"State":"NC","First Name":"Mohit","Country":"United States","Latitude":[35.78677],"Institution":"North Carolina State University","City":"Raleigh","Last Name":"Kumar","Longitude":[-78.66439],"County":"Wake Co.","Thrust":"","Name":"M. Kumar"},{"State":"NC","First Name":"Bongmook","Country":"United States","Latitude":[35.78677],"Institution":"North Carolina State University","City":"Raleigh","Last Name":"Lee","Longitude":[-78.66439],"County":"Wake Co.","Thrust":"Wearable Nanosensors","Name":"B. Lee"},{"State":"NC","First Name":"Marzana Mantasha","Country":"United States","Latitude":[35.78677],"Institution":"North Carolina State University","City":"Raleigh","Last Name":"Mahmud","Longitude":[-78.66439],"County":"Wake Co.","Thrust":"Wearable Nanosensors","Name":"M. M. Mahmud"},{"State":"NC","First Name":"steven","Country":"United States","Latitude":[35.78677],"Institution":"North Carolina State University","City":"Raleigh","Last Name":"Mills","Longitude":[-78.66439],"County":"Wake Co.","Thrust":"Wearable Nanosensors","Name":"S. Mills"},{"State":"NC","First Name":"Veena","Country":"United States","Latitude":[35.78677],"Institution":"North Carolina State University","City":"Raleigh","Last Name":"Misra","Longitude":[-78.66439],"County":"Wake Co.","Thrust":"","Name":"V. Misra"},{"State":"NC","First Name":"John","Country":"United States","Latitude":[35.78677],"Institution":"North Carolina State University","City":"Raleigh","Last Name":"Muth","Longitude":[-78.66439],"County":"Wake Co.","Thrust":"Wearable Nanosensors","Name":"Muth, John F"},{"State":"NC","First Name":"Amanda","Country":"United States","Latitude":[35.78677],"Institution":"North Carolina State University","City":"Raleigh","Last Name":"Myers","Longitude":[-78.66439],"County":"Wake Co.","Thrust":"Wearablility, Human Interface and Data","Name":"A. Myers"},{"State":"NC","First Name":"Mehmet","Country":"United States","Latitude":[35.78677],"Institution":"North Carolina State University","City":"Raleigh","Last Name":"Ozturk","Longitude":[-78.66439],"County":"Wake Co.","Thrust":"Energy Harvesting and Storage","Name":"Mehmet Ozturk"},{"State":"NC","First Name":"Francisco","Country":"United States","Latitude":[35.78677],"Institution":"North Carolina State University","City":"Raleigh","Last Name":"Suarez","Longitude":[-78.66439],"County":"Wake Co.","Thrust":"Energy Harvesting and Storage","Name":"Francisco Suarez"},{"State":"NC","First Name":"Feysel","Country":"United States","Latitude":[35.78677],"Institution":"North Carolina State University","City":"Raleigh","Last Name":"Yamaner","Longitude":[-78.66439],"County":"Wake Co.","Thrust":"Wearable Nanosensors","Name":"F. Y. Yamaner"},{"State":"NC","First Name":"Shanshan","Country":"United States","Latitude":[35.78677],"Institution":"North Carolina State University","City":"Raleigh","Last Name":"Yao","Longitude":[-78.66439],"County":"Wake Co.","Thrust":"Wearable Nanosensors","Name":"Shanshan Yao"},{"State":"NC","First Name":"Yanqi","Country":"United States","Latitude":[35.78677],"Institution":"North Carolina State University","City":"Raleigh","Last Name":"Ye","Longitude":[-78.66439],"County":"Wake Co.","Thrust":"","Name":"Yanqi Ye"},{"State":"NC","First Name":"Murat","Country":"United States","Latitude":[35.78677],"Institution":"North Carolina State University","City":"Raleigh","Last Name":"Yokus","Longitude":[-78.66439],"County":"Wake Co.","Thrust":"System Testbeds","Name":"M. A. Yokus"},{"State":"NC","First Name":"Xiao","Country":"United States","Latitude":[35.78677],"Institution":"North Carolina State University","City":"Raleigh","Last Name":"Zhang","Longitude":[-78.66439],"County":"Wake Co.","Thrust":"Wearable Nanosensors","Name":"Xiao Zhang"},{"State":"NC","First Name":"Yong","Country":"United States","Latitude":[35.78677],"Institution":"North Carolina State University","City":"Raleigh","Last Name":"Zhu","Longitude":[-78.66439],"County":"Wake Co.","Thrust":"Wearable Nanosensors","Name":"Yong Zhu"},{"State":"PA","First Name":"Suman","Country":"United States","Latitude":[40.796467],"Institution":"Penn State University","City":"State College","Last Name":"Datta","Longitude":[-77.86275],"County":"Centre Co.","Thrust":"Low-Power Nanoelectronics","Name":"Suman Datta"},{"State":"PA","First Name":"Thomas","Country":"United States","Latitude":[40.796467],"Institution":"Penn State University","City":"State College","Last Name":"Jackson","Longitude":[-77.86275],"County":"Centre Co.","Thrust":"Energy Harvesting and Storage","Name":"Thomas N. Jackson"},{"State":"PA","First Name":"Zhihao","Country":"United States","Latitude":[40.796467],"Institution":"Penn State University","City":"State College","Last Name":"Jiang","Longitude":[-77.86275],"County":"Centre Co.","Thrust":"Integrated Sensor Node Design","Name":"Z. H. Jiang"},{"State":"PA","First Name":"Yuanyuan","Country":"United States","Latitude":[40.796467],"Institution":"Penn State University","City":"State College","Last Name":"Li","Longitude":[-77.86275],"County":"Centre Co.","Thrust":"Energy Harvesting and Storage","Name":"Yuanyuan V. Li"},{"State":"PA","First Name":"Xueqing","Country":"United States","Latitude":[40.796467],"Institution":"Penn State University","City":"State College","Last Name":"Li","Longitude":[-77.86275],"County":"Centre Co.","Thrust":"Low-Power Nanoelectronics","Name":"Li, Xueqing"},{"State":"PA","First Name":"Huichu","Country":"United States","Latitude":[40.796467],"Institution":"Penn State University","City":"State College","Last Name":"Liu","Longitude":[-77.86275],"County":"Centre Co.","Thrust":"Low-Power Nanoelectronics","Name":"H. Liu"},{"State":"PA","First Name":"Danhao","Country":"United States","Latitude":[40.796467],"Institution":"Penn State University","City":"State College","Last Name":"Ma","Longitude":[-77.86275],"County":"Centre Co.","Thrust":"","Name":"Danhao Ma"},{"State":"PA","First Name":"Xiaokun","Country":"United States","Latitude":[40.796467],"Institution":"Penn State University","City":"State College","Last Name":"Ma","Longitude":[-77.86275],"County":"Centre Co.","Thrust":"Energy Harvesting and Storage","Name":"Ma, Xiaokun"},{"State":"PA","First Name":"Kaisheng","Country":"United States","Latitude":[40.796467],"Institution":"Penn State University","City":"State College","Last Name":"Ma","Longitude":[-77.86275],"County":"Centre Co.","Thrust":"","Name":"Ma, Kaisheng"},{"State":"PA","First Name":"Vijaykrishnan","Country":"United States","Latitude":[40.796467],"Institution":"Penn State University","City":"State College","Last Name":"Narayanan","Longitude":[-77.86275],"County":"Centre Co.","Thrust":"","Name":"Narayanan, Vijaykrishnan"},{"State":"PA","First Name":"Rahul","Country":"United States","Latitude":[40.796467],"Institution":"Penn State University","City":"State College","Last Name":"Pandey","Longitude":[-77.86275],"County":"Centre Co.","Thrust":"Low-Power Nanoelectronics","Name":"R. Pandey"},{"State":"PA","First Name":"Christopher","Country":"United States","Latitude":[40.796467],"Institution":"Penn State University","City":"State College","Last Name":"Rahn","Longitude":[-77.86275],"County":"Centre Co.","Thrust":"Energy Harvesting and Storage","Name":"Rahn, Christopher D"},{"State":"PA","First Name":"Ramakrishnan","Country":"United States","Latitude":[40.796467],"Institution":"Penn State University","City":"State College","Last Name":"Rajagopalan","Longitude":[-77.86275],"County":"Centre Co.","Thrust":"Energy Harvesting and Storage","Name":"Ramakrishnan Rajagopalan"},{"State":"PA","First Name":"Bijesh","Country":"United States","Latitude":[40.796467],"Institution":"Penn State University","City":"State College","Last Name":"Rajamohanan","Longitude":[-77.86275],"County":"Centre Co.","Thrust":"Low-Power Nanoelectronics","Name":"Bijesh Rajamohanan"},{"State":"PA","First Name":"Clive","Country":"United States","Latitude":[40.796467],"Institution":"Penn State University","City":"State College","Last Name":"Randall","Longitude":[-77.86275],"County":"Centre Co.","Thrust":"Energy Harvesting and Storage","Name":"Clive A. Randall"},{"State":"PA","First Name":"Kaige","Country":"United States","Latitude":[40.796467],"Institution":"Penn State University","City":"State College","Last Name":"Sun","Longitude":[-77.86275],"County":"Centre Co.","Thrust":"Energy Harvesting and Storage","Name":"Kaige G. Sun"},{"State":"PA","First Name":"Susan","Country":"United States","Latitude":[40.796467],"Institution":"Penn State University","City":"State College","Last Name":"Trolier-McKinstry","Longitude":[-77.86275],"County":"Centre Co.","Thrust":"Energy Harvesting and Storage","Name":"Trolier-mckinstry, Susan"},{"State":"PA","First Name":"Douglas","Country":"United States","Latitude":[40.796467],"Institution":"Penn State University","City":"State College","Last Name":"Werner","Longitude":[-77.86275],"County":"Centre Co.","Thrust":"Low-Power Nanoelectronics","Name":"D. H. Werner"},{"State":"PA","First Name":"Hong Goo","Country":"United States","Latitude":[40.796467],"Institution":"Penn State University","City":"State College","Last Name":"Yeo","Longitude":[-77.86275],"County":"Centre Co.","Thrust":"Energy Harvesting and Storage","Name":"Yeo, Hong Goo"},{"State":"PA","First Name":"Taiwei","Country":"United States","Latitude":[40.796467],"Institution":"Penn State University","City":"State College","Last Name":"Yue","Longitude":[-77.86275],"County":"Centre Co.","Thrust":"Low-Power Nanoelectronics","Name":"T. Yue"},{"State":"NC","First Name":"David","Country":"United States","Latitude":[35.90875],"Institution":"University of North Carolina-Chapel Hill","City":"Chapel Hill","Last Name":"Peden","Longitude":[-79.0301],"County":"Orange Co.","Thrust":"System Testbeds","Name":"D. Peden"},{"State":"UT","First Name":"Shad","Country":"United States","Latitude":[40.76548],"Institution":"University of Utah","City":"Salt Lake City","Last Name":"Roundy","Longitude":[-111.84991],"County":"Salt Lake Co.","Thrust":"","Name":"S Roundy"},{"State":"UT","First Name":"Tiancheng","Country":"United States","Latitude":[40.76548],"Institution":"University of Utah","City":"Salt Lake City","Last Name":"Xue","Longitude":[-111.84991],"County":"Salt Lake Co.","Thrust":"Energy Harvesting and Storage","Name":"T Xue"},{"State":"VA","First Name":"Peter","Country":"United States","Latitude":[38.03617],"Institution":"University of Virginia","City":"Charlottesville","Last Name":"Beshay","Longitude":[-78.5016],"County":"Charlottesville","Thrust":"","Name":"P. Beshay"},{"State":"","First Name":"Kofi","Country":"","Latitude":[],"Institution":"","City":"","Last Name":"Adu","Longitude":[],"County":"","Thrust":"","Name":"Kofi Adu"},{"State":"","First Name":"","Country":"","Latitude":[],"Institution":"","City":"","Last Name":"Agrawal","Longitude":[],"County":"","Thrust":"","Name":"N. Agrawal"},{"State":"","First Name":"","Country":"","Latitude":[],"Institution":"","City":"","Last Name":"Aitken","Longitude":[],"County":"","Thrust":"","Name":"R. Aitken"},{"State":"","First Name":"Sunil","Country":"","Latitude":[],"Institution":"","City":"","Last Name":"Arya","Longitude":[],"County":"","Thrust":"","Name":"Sunil K. Arya"},{"State":"","First Name":"Barry","Country":"","Latitude":[],"Institution":"","City":"","Last Name":"Brennan","Longitude":[],"County":"","Thrust":"","Name":"Barry Brennan"},{"State":"","First Name":"Linyou","Country":"","Latitude":[],"Institution":"","City":"","Last Name":"Cao","Longitude":[],"County":"","Thrust":"","Name":"Linyou Cao"},{"State":"","First Name":"","Country":"","Latitude":[],"Institution":"","City":"","Last Name":"Chandra","Longitude":[],"County":"","Thrust":"","Name":"V. Chandra"},{"State":"","First Name":"Eom","Country":"","Latitude":[],"Institution":"","City":"","Last Name":"Chang-Beom","Longitude":[],"County":"","Thrust":"","Name":"Eom,chang-beom"},{"State":"","First Name":"","Country":"","Latitude":[],"Institution":"","City":"","Last Name":"Chobpattana","Longitude":[],"County":"","Thrust":"","Name":"V. Chobpattana"},{"State":"","First Name":"","Country":"","Latitude":[],"Institution":"","City":"","Last Name":"Dasu","Longitude":[],"County":"","Thrust":"","Name":"A. R. Dasu"},{"State":"","First Name":"Jin","Country":"","Latitude":[],"Institution":"","City":"","Last Name":"Di","Longitude":[],"County":"","Thrust":"","Name":"Jin Di"},{"State":"","First Name":"","Country":"","Latitude":[],"Institution":"","City":"","Last Name":"Du","Longitude":[],"County":"","Thrust":"","Name":"L. Du"},{"State":"","First Name":"John","Country":"","Latitude":[],"Institution":"","City":"","Last Name":"Durham","Longitude":[],"County":"","Thrust":"","Name":"John W. Durham, Iii"},{"State":"","First Name":"","Country":"","Latitude":[],"Institution":"","City":"","Last Name":"Eichfeld","Longitude":[],"County":"","Thrust":"","Name":"C. Eichfeld"},{"State":"","First Name":"Roman","Country":"","Latitude":[],"Institution":"","City":"","Last Name":"Engel-Herbert","Longitude":[],"County":"","Thrust":"","Name":"Roman Engel-herbert"},{"State":"","First Name":"","Country":"","Latitude":[],"Institution":"","City":"","Last Name":"Fritze","Longitude":[],"County":"","Thrust":"","Name":"M. Fritze"},{"State":"","First Name":"Tushar","Country":"","Latitude":[],"Institution":"","City":"","Last Name":"Ghosh","Longitude":[],"County":"","Thrust":"","Name":"Tushar K. Ghosh"},{"State":"","First Name":"","Country":"","Latitude":[],"Institution":"","City":"","Last Name":"Granacki","Longitude":[],"County":"","Thrust":"","Name":"J. J. Granacki"},{"State":"","First Name":"","Country":"","Latitude":[],"Institution":"","City":"","Last Name":"Gregory","Longitude":[],"County":"","Thrust":"","Name":"M. D. Gregory"},{"State":"","First Name":"Alper","Country":"","Latitude":[],"Institution":"","City":"","Last Name":"Gurarslan","Longitude":[],"County":"","Thrust":"","Name":"Alper Gurarslan"},{"State":"","First Name":"","Country":"","Latitude":[],"Institution":"","City":"","Last Name":"Henry","Longitude":[],"County":"","Thrust":"","Name":"K. Henry"},{"State":"","First Name":"","Country":"","Latitude":[],"Institution":"","City":"","Last Name":"Huang","Longitude":[],"County":"","Thrust":"","Name":"H. Huang"},{"State":"","First Name":"","Country":"","Latitude":[],"Institution":"","City":"","Last Name":"Hunt","Longitude":[],"County":"","Thrust":"","Name":"A Hunt"},{"State":"","First Name":"","Country":"","Latitude":[],"Institution":"","City":"","Last Name":"Ishmael","Longitude":[],"County":"","Thrust":"","Name":"S A Ishmael"},{"State":"","First Name":"","Country":"","Latitude":[],"Institution":"","City":"","Last Name":"Jagasivamani","Longitude":[],"County":"","Thrust":"","Name":"M. Jagasivamani"},{"State":"","First Name":"","Country":"","Latitude":[],"Institution":"","City":"","Last Name":"Jayakumar","Longitude":[],"County":"","Thrust":"","Name":"R. Jayakumar"},{"State":"","First Name":"Jim","Country":"","Latitude":[],"Institution":"","City":"","Last Name":"Kalupson","Longitude":[],"County":"","Thrust":"","Name":"Jim Kalupson"},{"State":"","First Name":"","Country":"","Latitude":[],"Institution":"","City":"","Last Name":"Kuhn","Longitude":[],"County":"","Thrust":"","Name":"M. Kuhn"},{"State":"","First Name":"Rajesh","Country":"","Latitude":[],"Institution":"","City":"","Last Name":"Kumar","Longitude":[],"County":"","Thrust":"","Name":"Kumar, Rajesh"},{"State":"","First Name":"","Country":"","Latitude":[],"Institution":"","City":"","Last Name":"Labella","Longitude":[],"County":"","Thrust":"","Name":"M. Labella"},{"State":"","First Name":"","Country":"","Latitude":[],"Institution":"","City":"","Last Name":"Li","Longitude":[],"County":"","Thrust":"","Name":"S. Li"},{"State":"","First Name":"Yongpan","Country":"","Latitude":[],"Institution":"","City":"","Last Name":"Liu","Longitude":[],"County":"","Thrust":"","Name":"Liu, Yongpan"},{"State":"","First Name":"","Country":"","Latitude":[],"Institution":"","City":"","Last Name":"Luo","Longitude":[],"County":"","Thrust":"","Name":"H Luo"},{"State":"","First Name":"","Country":"","Latitude":[],"Institution":"","City":"","Last Name":"Mahapatra","Longitude":[],"County":"","Thrust":"","Name":"S. Mahapatra"},{"State":"","First Name":"","Country":"","Latitude":[],"Institution":"","City":"","Last Name":"Maier","Longitude":[],"County":"","Thrust":"","Name":"J. Maier"},{"State":"","First Name":"","Country":"","Latitude":[],"Institution":"","City":"","Last Name":"Mandzy","Longitude":[],"County":"","Thrust":"","Name":"N Mandzy"},{"State":"","First Name":"","Country":"","Latitude":[],"Institution":"","City":"","Last Name":"Mcilrath","Longitude":[],"County":"","Thrust":"","Name":"L. Mcilrath"},{"State":"","First Name":"Dheeraj","Country":"","Latitude":[],"Institution":"","City":"","Last Name":"Mohata","Longitude":[],"County":"","Thrust":"","Name":"Dheeraj Mohata"},{"State":"","First Name":"Kamran","Country":"","Latitude":[],"Institution":"","City":"","Last Name":"Moradi","Longitude":[],"County":"","Thrust":"","Name":"Moradi, Kamran"},{"State":"","First Name":"","Country":"","Latitude":[],"Institution":"","City":"","Last Name":"Mukhopadhyay","Longitude":[],"County":"","Thrust":"","Name":"S. Mukhopadhyay"},{"State":"","First Name":"","Country":"","Latitude":[],"Institution":"","City":"","Last Name":"Nagle","Longitude":[],"County":"","Thrust":"","Name":"H. T. Nagle"},{"State":"","First Name":"Madhavan","Country":"","Latitude":[],"Institution":"","City":"","Last Name":"Nair","Longitude":[],"County":"","Thrust":"","Name":"Nair, Madhavan"},{"State":"","First Name":"","Country":"","Latitude":[],"Institution":"","City":"","Last Name":"Nesbit","Longitude":[],"County":"","Thrust":"","Name":"R Nesbit"},{"State":"","First Name":"","Country":"","Latitude":[],"Institution":"","City":"","Last Name":"Paskova","Longitude":[],"County":"","Thrust":"","Name":"T Paskova"},{"State":"","First Name":"David","Country":"","Latitude":[],"Institution":"","City":"","Last Name":"Saint John","Longitude":[],"County":"","Thrust":"","Name":"David B. Saint John"},{"State":"","First Name":"John","Country":"","Latitude":[],"Institution":"","City":"","Last Name":"Sampson","Longitude":[],"County":"","Thrust":"","Name":"Sampson, John"},{"State":"","First Name":"","Country":"","Latitude":[],"Institution":"","City":"","Last Name":"Schwartz","Longitude":[],"County":"","Thrust":"","Name":"J Schwartz"},{"State":"","First Name":"","Country":"","Latitude":[],"Institution":"","City":"","Last Name":"Slomski","Longitude":[],"County":"","Thrust":"","Name":"M Slomski"},{"State":"","First Name":"","Country":"","Latitude":[],"Institution":"","City":"","Last Name":"Stemmer","Longitude":[],"County":"","Thrust":"","Name":"S. Stemmer"},{"State":"","First Name":"","Country":"","Latitude":[],"Institution":"","City":"","Last Name":"Straka","Longitude":[],"County":"","Thrust":"","Name":"W Straka"},{"State":"","First Name":"Liqin","Country":"","Latitude":[],"Institution":"","City":"","Last Name":"Su","Longitude":[],"County":"","Thrust":"","Name":"Liqin Su"},{"State":"","First Name":"","Country":"","Latitude":[],"Institution":"","City":"","Last Name":"Swaminathan","Longitude":[],"County":"","Thrust":"","Name":"K. Swaminathan"},{"State":"","First Name":"","Country":"","Latitude":[],"Institution":"","City":"","Last Name":"Trivedi","Longitude":[],"County":"","Thrust":"","Name":"A. R. Trivedi"},{"State":"","First Name":"Robert","Country":"","Latitude":[],"Institution":"","City":"","Last Name":"Wallace","Longitude":[],"County":"","Thrust":"","Name":"Robert M. Wallace"},{"State":"","First Name":"","Country":"","Latitude":[],"Institution":"","City":"","Last Name":"Wang","Longitude":[],"County":"","Thrust":"","Name":"K. Wang"},{"State":"","First Name":"Yan","Country":"","Latitude":[],"Institution":"","City":"","Last Name":"Wang","Longitude":[],"County":"","Thrust":"","Name":"Wang, Yan"},{"State":"","First Name":"","Country":"","Latitude":[],"Institution":"","City":"","Last Name":"Werner","Longitude":[],"County":"","Thrust":"","Name":"P. L. Werner"},{"State":"","First Name":"","Country":"","Latitude":[],"Institution":"","City":"","Last Name":"White","Longitude":[],"County":"","Thrust":"","Name":"M White"},{"State":"","First Name":"Yuan","Country":"","Latitude":[],"Institution":"","City":"","Last Name":"Xie","Longitude":[],"County":"","Thrust":"","Name":"Xie, Yuan"},{"State":"","First Name":"Yifei","Country":"","Latitude":[],"Institution":"","City":"","Last Name":"Yu","Longitude":[],"County":"","Thrust":"","Name":"Yifei Yu"},{"State":"","First Name":"Yiling","Country":"","Latitude":[],"Institution":"","City":"","Last Name":"Yu","Longitude":[],"County":"","Thrust":"","Name":"Yiling Yu"},{"State":"","First Name":"Jicheng","Country":"","Latitude":[],"Institution":"","City":"","Last Name":"Yu","Longitude":[],"County":"","Thrust":"","Name":"Jicheng Yu"},{"State":"","First Name":"Yong","Country":"","Latitude":[],"Institution":"","City":"","Last Name":"Zhang","Longitude":[],"County":"","Thrust":"","Name":"Yong Zhang"},{"State":"","First Name":"","Country":"","Latitude":[],"Institution":"","City":"","Last Name":"Zheng","Longitude":[],"County":"","Thrust":"","Name":"Y. Zheng"},{"State":"","First Name":"Dmitry","Country":"","Latitude":[],"Institution":"","City":"","Last Name":"Zhernokletov","Longitude":[],"County":"","Thrust":"","Name":"Dmitry Zhernokletov"}]},"topology":"table"}